[{"ring_number":1,"ring_icon":"游꼴","ring_nickname":"Intl","label":"International","ring_name":"International Ring","ring_id":51,"ring_priority":1,"ring_iter":"['1']","sort":1,"ring_note":null,"distanceInFeet":1135,"coordinates":"26.633650, -80.272943","defaultLat":26.63365,"defaultLong":-80.2729,"estimatedTime":4.5},{"ring_number":2,"ring_icon":"游꼴","ring_nickname":"Grand","label":"Grand","ring_name":"E.R. Mische Grand Hunter","ring_id":9,"ring_priority":2,"ring_iter":"['2']","sort":2,"ring_note":null,"distanceInFeet":1452,"coordinates":"26.634190, -80.271984","defaultLat":26.63419,"defaultLong":-80.2720,"estimatedTime":5.8},{"ring_number":3,"ring_icon":"游꼴","ring_nickname":"Rost","label":"Rost","ring_name":"Rost Arena","ring_id":37,"ring_priority":3,"ring_iter":"['3']","sort":3,"ring_note":null,"distanceInFeet":1176,"coordinates":"26.634819, -80.272990","defaultLat":26.63482,"defaultLong":-80.2730,"estimatedTime":0.0},{"ring_number":4,"ring_icon":"游꼴","ring_nickname":"Mogavero","label":"Mogavero","ring_name":"Mogavero","ring_id":52,"ring_priority":4,"ring_iter":"['4']","sort":4,"ring_note":null,"distanceInFeet":646,"coordinates":"26.633659, -80.274447","defaultLat":26.63366,"defaultLong":-80.2744,"estimatedTime":2.6},{"ring_number":5,"ring_icon":"游꼴","ring_nickname":"Denemethy","label":"Denemethy","ring_name":"Denemethy","ring_id":49,"ring_priority":5,"ring_iter":"['5']","sort":5,"ring_note":null,"distanceInFeet":957,"coordinates":"26.632676, -80.273781","defaultLat":26.63268,"defaultLong":-80.2720,"estimatedTime":3.8},{"ring_number":6,"ring_icon":"游꼴","ring_nickname":"Ring 6","label":"Ring 6","ring_name":"Ring 6","ring_id":25,"ring_priority":6,"ring_iter":"['6']","sort":6,"ring_note":null,"distanceInFeet":708,"coordinates":"26.635085, -80.274768","defaultLat":26.63509,"defaultLong":-80.2748,"estimatedTime":2.8},{"ring_number":7,"ring_icon":"游꼴","ring_nickname":"Ring 7","label":"Ring 7","ring_name":"Ring 7","ring_id":56,"ring_priority":7,"ring_iter":"['7']","sort":7,"ring_note":null,"distanceInFeet":411,"coordinates":"26.633806, -80.275160","defaultLat":26.63381,"defaultLong":-80.2752,"estimatedTime":1.6},{"ring_number":8,"ring_icon":"游꼴","ring_nickname":"Ring 8","label":"Ring 8","ring_name":"Ring 8","ring_id":57,"ring_priority":8,"ring_iter":"['8']","sort":8,"ring_note":null,"distanceInFeet":null,"coordinates":null,"defaultLat":null,"defaultLong":null,"estimatedTime":null},{"ring_number":9,"ring_icon":"游꼴","ring_nickname":"Ring 9","label":"Ring 9","ring_name":"Ring 9","ring_id":58,"ring_priority":9,"ring_iter":"['9']","sort":9,"ring_note":null,"distanceInFeet":411,"coordinates":"26.632652, -80.275553","defaultLat":26.63265,"defaultLong":-80.2756,"estimatedTime":1.6},{"ring_number":10,"ring_icon":"游꼴","ring_nickname":"Ring 10","label":"Ring 10","ring_name":"Ring 10","ring_id":53,"ring_priority":10,"ring_iter":"['10']","sort":10,"ring_note":null,"distanceInFeet":1176,"coordinates":"26.632670, -80.276218","defaultLat":26.63267,"defaultLong":-80.2762,"estimatedTime":4.7},{"ring_number":11,"ring_icon":"游꼴","ring_nickname":"Ring 11","label":"Ring 11","ring_name":"Ring 11","ring_id":22,"ring_priority":11,"ring_iter":"['11']","sort":11,"ring_note":null,"distanceInFeet":1913,"coordinates":"26.634359, -80.270584","defaultLat":26.63436,"defaultLong":-80.2706,"estimatedTime":7.7},{"ring_number":12,"ring_icon":"游꼴","ring_nickname":"Ring 12","label":"Ring 12","ring_name":"Ring 12","ring_id":30,"ring_priority":12,"ring_iter":"['12']","sort":12,"ring_note":null,"distanceInFeet":2028,"coordinates":"26.634352, -80.270228","defaultLat":26.63435,"defaultLong":-80.2702,"estimatedTime":8.1},{"ring_number":13,"ring_icon":"游꼴","ring_nickname":"South Ring","label":"South Ring","ring_name":"South Ring","ring_id":38,"ring_priority":13,"ring_iter":"['13']","sort":13,"ring_note":null,"distanceInFeet":902,"coordinates":"26.631468, -80.277255","defaultLat":26.63147,"defaultLong":-80.2773,"estimatedTime":3.6}]